[
	{"city":"Vazhuthacaud","address":"4th Floor, Artech Magnet, Vazhuthacaud,Trivandrum - 695014",
	 "employeeCount":"160","lat":"8.5031","long":"76.96"},
	{"city":"Thejaswini - Technopark","address":"C22, Thejaswini,Technopark,Trivandrum - 695581",
	 "employeeCount":"140","lat":"8.5567","long":"76.8821"},
	{"city":"Pattom - Trivandrum","address":"3rd Floor, Leela Towers,Pattom,Trivandrum - 695004",
	 "employeeCount":"100","lat":"8.5279844","long":"76.9394392"},
	{"city":"Ganga - Phase III Campus","address":"3rd Floor, 7th Floor, Ganga, Phase III Campus, Technopark, Trivandrum - 695583",
	 "employeeCount":"250","lat":"8.4973","long":"76.9485"},
	{"city":"Carnival Infopark - Cochin","address":"9th Floor, 9-A, Phase 4, Carnival Infopark, Cochin - 682030",
	 "employeeCount":"200","lat":"10.01475","long":"76.3632975"},
	{"city":"Infopark - Koratty","address":"Nisagandhi, Infopark,Koratty,Trissur - 680308",
	 "employeeCount":"100","lat":"10.2685969","long":"76.3538473"},
	{"city":"Calicut","address":"5th Floor, C.M Mathew Brothers Arcade, Calicut - 673005",
	 "employeeCount":"200","lat":"11.2764283","long":"75.7721887"},
	{"city":"Perungudi - Chennai","address":"1st Floor, Block A, SP Info City, #40 MGR Salai, Perungudi, Chennai - 600096",
	 "employeeCount":"100","lat":"12.9797","long":"80.2419"},
	{"city":"Australia - Sydney","address":"126 Marsden Street, Parramatta, NSW 2150",
	 "employeeCount":"150","lat":"-33.8169308","long":"151.0009176"},
	{"city":"Singapore","address":"8 Temasek Boulevard,#42-01, Suntec Tower Three, Singapore 038988",
	 "employeeCount":"100","lat":"1.2952","long":"103.8595"}
	]
